[{"name": "100 Blumen Brauerei", "municipality": "Wien", "location": [16.3725042, 48.2083537]}, {"name": "1516 Brewing Company", "municipality": "Vienna", "location": [16.3725042, 48.2083537]}, {"name": "2514-Bier Privatbr\u00e4u Leimer", "municipality": "Traiskirchen", "location": [16.2952311, 48.0138858]}, {"name": "3 Goldenen Kugeln", "municipality": "Graz", "location": [15.4385716, 47.0702563]}, {"name": "3 Prinzen", "municipality": "Bad Ischl", "location": [13.6239333, 47.7115299]}, {"name": "6 beers brewing co.", "municipality": "Breitenfurt", "location": [16.1745714613485, 48.1363109]}, {"name": "7 Stern Br\u00e4u", "municipality": "Vienna", "location": [16.3725042, 48.2083537]}, {"name": "Achensee Bier", "municipality": "Eben am Achensee", "location": [11.5848637920891, 47.4742812]}, {"name": "Adlerbr\u00e4u Tulln", "municipality": "Tulln an der Donau", "location": [16.0567744, 48.3311686]}, {"name": "Alefried Bier", "municipality": "Graz", "location": [15.4385716, 47.0702563]}, {"name": "Ammuts\u00f8n", "municipality": "Wien", "location": [16.3725042, 48.2083537]}, {"name": "Anton Wallner Br\u00e4u", "municipality": "Krimml", "location": [12.1751219, 47.2207671]}, {"name": "Antonius Br\u00e4u", "municipality": "Leobersdorf", "location": [16.216666, 47.9285336]}, {"name": "Augustiner Br\u00e4u Kloster M\u00fclln", "municipality": "Salzburg", "location": [13.0464806, 47.7981346]}, {"name": "Bahnhofsbr\u00e4u", "municipality": "Obergrafendorf", "location": [15.5438089, 48.1500368]}, {"name": "B\u00e4renbr\u00e4u", "municipality": "Matzen", "location": [14.3624432, 46.508947]}, {"name": "Bauernhofbrauerei Bergmair", "municipality": "Kremsm\u00fcnster", "location": [14.128766, 48.0533652]}, {"name": "Bauernhofbrauerei Schmallegger", "municipality": "Floing", "location": [15.7462248, 47.2641263]}, {"name": "Beaver Brewing Company (Vienna)", "municipality": "Vienna", "location": [16.3725042, 48.2083537]}, {"name": "Beerstarter GmbH", "municipality": "M\u00f6dling", "location": [16.2833526, 48.0855922]}, {"name": "Berger-Br\u00e4u", "municipality": "Sankt Jakob im Walde", "location": [15.786947, 47.4660432]}, {"name": "Bevog Brewery", "municipality": "Bad Radkersburg", "location": [15.9880546, 46.6880556]}, {"name": "Bierbuschenschank Eder-Br\u00e4u", "municipality": "Kefermarkt", "location": [14.5383884, 48.4429634]}, {"name": "Biergasthaus Schiffner", "municipality": "Aigen-Schl\u00e4gl", "location": [13.9716495, 48.6440861]}, {"name": "Bierkanter", "municipality": "Amstetten", "location": [14.8752424, 48.1203262]}, {"name": "Biermacherei Bugelm\u00fcller", "municipality": "Korneuburg", "location": [16.3334321, 48.3440605]}, {"name": "Bierol", "municipality": "Schwoich", "location": [12.1407757, 47.5440468]}, {"name": "Bierquelle Heugraben", "municipality": "Heugraben", "location": [16.1910116, 47.1191584]}, {"name": "Bierschmiede", "municipality": "Steinbach am Attersee", "location": [13.5465849, 47.8300947]}, {"name": "Bierwerkstatt Weitra Br\u00e4u (Privatbrauerei Zwettl)", "municipality": "Weitra", "location": [14.8941385, 48.7007937]}, {"name": "Bierzirkus", "municipality": "Linz", "location": [14.286198, 48.3059078]}, {"name": "Birgl-Br\u00e4u", "municipality": "Inning", "location": [11.1526202, 48.0774991]}, {"name": "Boku Brew Crew", "municipality": "Vienna", "location": [16.3725042, 48.2083537]}, {"name": "Boustaa", "municipality": "Linz", "location": [14.286198, 48.3059078]}, {"name": "Bramsau Br\u00e4u", "municipality": "Faistenau", "location": [13.2337735, 47.7781258]}, {"name": "Branger Br\u00e4u", "municipality": "Unterperfu\u00df bei Innsbruck", "location": [11.2575503, 47.2596685]}, {"name": "Bratl Br\u00e4u - Gasthaus Sengstbratl", "municipality": "St. Georgen am Walde", "location": [14.8967303, 48.35948]}, {"name": "Br\u00e4u am Berg Starzinger", "municipality": "Frankenmarkt", "location": [13.4192901, 47.9854654]}, {"name": "Brau Union Linz", "municipality": "Linz", "location": [14.286198, 48.3059078]}, {"name": "Brau.Hand.Werk. Knaller", "municipality": "Eschenau", "location": [15.5556288176077, 48.04115325]}, {"name": "Brau-Boutique", "municipality": "St. Stefan am Walde", "location": [14.1025205, 48.5674914]}, {"name": "Braucommune Freistadt", "municipality": "Freistadt", "location": [14.5047566, 48.5112961]}, {"name": "Brauerei Aspach (Starzinger)", "municipality": "Aspach im Innkreis", "location": [13.5556471, 48.1763835]}, {"name": "Brauerei Bachner", "municipality": "St. Stefan am Walde", "location": [14.1025205, 48.5674914]}, {"name": "Brauerei Dangl", "municipality": "Japons", "location": [15.5678266, 48.7926425]}, {"name": "Brauerei Ebner", "municipality": "Absam", "location": [11.5051409, 47.2965003]}, {"name": "Brauerei Egg", "municipality": "Egg", "location": [9.8973803, 47.4314481]}, {"name": "Brauerei Falkenstein (Brau Union)", "municipality": "Lienz", "location": [14.286198, 48.3059078]}, {"name": "Brauerei Fohrenburg / Engelburg Getr\u00e4nke", "municipality": "Bludenz", "location": [9.8219314, 47.153037]}, {"name": "Brauerei Frastanz reg. Gen.m.b.H.", "municipality": "Frastanz", "location": [9.6330556, 47.2166667]}, {"name": "Brauerei Gratzer", "municipality": "Kaindorf", "location": [15.9117162, 47.2247418]}, {"name": "Brauerei Grieskirchen", "municipality": "Grieskirchen", "location": [13.826192, 48.235011]}, {"name": "Brauerei Gusswerk", "municipality": "Hof bei Salzburg", "location": [13.2130752, 47.8197109]}, {"name": "Brauerei Hainfeld", "municipality": "Hainfeld", "location": [15.7712084, 48.0348811]}, {"name": "Brauerei Hirt", "municipality": "Micheldorf", "location": [14.4266404, 46.914433]}, {"name": "Brauerei Hofstetten - Krammer", "municipality": "St. Martin", "location": [15.2885833, 47.4453409]}, {"name": "Brauerei Josef Baumgartner AG", "municipality": "Sch\u00e4rding", "location": [13.4318, 48.4569975]}, {"name": "Brauerei Murau", "municipality": "Murau", "location": [14.16919, 47.11224]}, {"name": "Brauerei Piesting", "municipality": "Markt Piesting", "location": [16.1289999, 47.8733551]}, {"name": "Brauerei Raschhofer", "municipality": "Altheim", "location": [13.2320404, 48.250022]}, {"name": "Brauerei Ried", "municipality": "Ried", "location": [9.617792, 47.3159902]}, {"name": "Brauerei Schloss Eggenberg", "municipality": "Vorchdorf", "location": [13.922837, 48.0035141]}, {"name": "Brauerei Schloss Starkenberg", "municipality": "Tarrenz", "location": [10.7623191, 47.2618485]}, {"name": "Brauerei Schrems", "municipality": "Schrems NO", "location": [15.0690038, 48.7934169]}, {"name": "Brauerei Shilling", "municipality": "Radenthein", "location": [13.7107017, 46.8007487]}, {"name": "Brauhaus Breznik", "municipality": "Bleiburg", "location": [14.8120383819363, 46.5911257]}, {"name": "Brauhaus Marchart", "municipality": "Sankt Andr\u00e4-W\u00f6rdern", "location": [16.2175963419235, 48.31739315]}, {"name": "Brauhaus Mariazell Familie Girrer", "municipality": "Mariazell", "location": [15.3174781, 47.7717395]}, {"name": "Br\u00e4uhaus Ten.Fifty.", "municipality": "Vienna", "location": [16.3725042, 48.2083537]}, {"name": "Brauhaus Traun", "municipality": "Traun", "location": [14.2368078, 48.2214369]}, {"name": "Brauhof Goldberg", "municipality": "Schiedlberg", "location": [14.2645752, 48.0920742]}, {"name": "Brauhotel Weitra", "municipality": "Weitra", "location": [14.8941385, 48.7007937]}, {"name": "Brauk\u00fcche 35", "municipality": "Wullersdorf", "location": [16.1106622765297, 48.6359474]}, {"name": "Braukunst Neidhartinger", "municipality": "Kolsass", "location": [11.6362229, 47.3005638]}, {"name": "Braumanufaktur Schalken", "municipality": "Vienna", "location": [16.3725042, 48.2083537]}, {"name": "Br\u00e4urup", "municipality": "Mittersill", "location": [12.4837012, 47.2815157]}, {"name": "BrauSchneider e.U.", "municipality": "Schiltern bei Langenlois", "location": [15.6215655, 48.5169282]}, {"name": "Brauviertel", "municipality": "Allentsteig", "location": [15.3295132, 48.6956583]}, {"name": "Brauwerk Wien", "municipality": "Vienna", "location": [16.3725042, 48.2083537]}, {"name": "Brettner Br\u00e4u", "municipality": "Schottwien", "location": [15.8716054, 47.6545995]}, {"name": "Brew Age", "municipality": "Vienna", "location": [16.3725042, 48.2083537]}, {"name": "BrewTown", "municipality": "St. Johann im Pongau", "location": [13.3403548088152, 47.2845718]}, {"name": "Bruckners Brauwelt", "municipality": "Gaming", "location": [15.147650691852, 47.85521915]}, {"name": "Brudi & Brudi", "municipality": "Lanzenkirchen", "location": [16.2392243, 47.7429289]}, {"name": "Caf\u00e9 Lassa", "municipality": "Vienna", "location": [16.3725042, 48.2083537]}, {"name": "Collabs Brewery", "municipality": "Vienna", "location": [16.3725042, 48.2083537]}, {"name": "Der Belgier Brewing", "municipality": "Wien", "location": [16.3725042, 48.2083537]}, {"name": "Die Brauerei Leutschach", "municipality": "Leutschach", "location": [13.2353614, 46.9209622]}, {"name": "Die Weisse - Salzburger Weissbierbrauerei", "municipality": "Salzburg", "location": [13.0464806, 47.7981346]}, {"name": "Dietrachinger Hausbrauerei", "municipality": "Moosbach", "location": [10.6269202, 49.5395911]}, {"name": "Drunken Unicorn Brewery", "municipality": "Vienna", "location": [16.3725042, 48.2083537]}, {"name": "Dunkelsteiner Br\u00e4u", "municipality": "Karlstetten", "location": [15.5656447, 48.2586538]}, {"name": "D\u00fcrnsteiner Privatbrauerei", "municipality": "Bad Deutsch-Altenburg", "location": [16.9059472, 48.1341577]}, {"name": "Edeltraud Handwerksbrauerei", "municipality": "Arriach", "location": [13.8507319, 46.7301731]}, {"name": "Eders Hofbrauerei", "municipality": "F\u00fcrstenfeld", "location": [16.0816815, 47.0499925]}, {"name": "Ehrentrautmannsdorfer Biermanufaktur", "municipality": "Trautmannsdorf", "location": [16.6360129, 48.0223595]}, {"name": "Emmerbergbr\u00e4u", "municipality": "Winzendorf", "location": [15.8834114, 47.2731897]}, {"name": "Erlauftaler Br\u00e4u", "municipality": "Wieselburg", "location": [15.1465033530127, 48.1293179]}, {"name": "Erste Wolfgangseer Braugesellschaft mbH", "municipality": "Strobl", "location": [13.4835153, 47.7170199]}, {"name": "Eugen Artisan Ales", "municipality": "Vienna", "location": [16.3725042, 48.2083537]}, {"name": "Familienbrauerei Huber", "municipality": "St. Johann in Tirol", "location": [12.4286809, 47.5224141]}, {"name": "Fein Brewery", "municipality": "Faak am See", "location": [13.9169577, 46.5668244]}, {"name": "Fiakerbr\u00e4u", "municipality": "Langenlois", "location": [15.676295, 48.472601]}, {"name": "Fischer Br\u00e4u", "municipality": "Wien", "location": [16.3725042, 48.2083537]}, {"name": "Flecks Bier", "municipality": "Frohnleiten", "location": [15.3260206, 47.2715315]}, {"name": "Floriani Br\u00e4u", "municipality": "Wilhering", "location": [14.1921444, 48.3235801]}, {"name": "Franz der Brauer", "municipality": "Bergheim", "location": [13.0221612, 47.8408541]}, {"name": "Freibrauerei Maurer", "municipality": "G\u00fcssing", "location": [16.32271786462, 47.05552765]}, {"name": "Freynis B\u00e4cker Br\u00e4u", "municipality": "Ardagger Markt", "location": [14.8267196, 48.1803394]}, {"name": "F\u00fcrstenbr\u00e4u", "municipality": "F\u00fcrstenfeld", "location": [16.0816815, 47.0499925]}, {"name": "Gabler Bier", "municipality": "Salzburg", "location": [13.0464806, 47.7981346]}, {"name": "Gablitzer Privatbrauerei Markus F\u00fchrer", "municipality": "Gablitz", "location": [16.1537402, 48.2278911]}, {"name": "Gallier Br\u00e4u", "municipality": "Landegg", "location": [16.3976248, 47.8993676]}, {"name": "Ganahl Getr\u00e4nke - Arlberg Quellfrisch", "municipality": "Bludenz", "location": [9.8219314, 47.153037]}, {"name": "G\u00e4rage - The Satisfactory", "municipality": "Spittal / Drau", "location": [13.4872101, 46.7905474]}, {"name": "Gasthaus Carrousel - Kirchberger Bier", "municipality": "Kirchberg am Walde", "location": [15.0886695, 48.7242338]}, {"name": "Gasthof Hubertus", "municipality": "Saalfelden am Steinernen Meer", "location": [12.8481048, 47.4266166]}, {"name": "Gastro- & Events", "municipality": "Laa/Thaya", "location": [16.3650659399057, 48.71701005]}, {"name": "Gegenbauer", "municipality": "Vienna", "location": [16.3725042, 48.2083537]}, {"name": "Gelter Br\u00e4u", "municipality": "Sankt Veit an der Glan", "location": [14.3576981, 46.7672814]}, {"name": "Geroldinger Brauhaus", "municipality": "Gerolding", "location": [13.5405704, 48.3395921]}, {"name": "Gerstl-Br\u00e4u", "municipality": "Wels", "location": [14.0244047, 48.1566957]}, {"name": "Gl\u00f6ckl Br\u00e4u", "municipality": "Graz", "location": [15.4385716, 47.0702563]}, {"name": "Going Craft Manufaktur", "municipality": "Going", "location": [12.3275716, 47.5142224]}, {"name": "G\u00f6sser (Brau Union)", "municipality": "Leoben", "location": [15.0942137, 47.3827417]}, {"name": "Grabhers Sudwerk", "municipality": "Bregenz", "location": [9.7472924, 47.5025779]}, {"name": "Gratg\u00e4nger Bier", "municipality": "Salzburg", "location": [13.0464806, 47.7981346]}, {"name": "GROK", "municipality": "W\u00f6rgl", "location": [12.0637633, 47.4872718]}, {"name": "Gro\u00dfst\u00fcbinger Leitn Bier", "municipality": "Gro\u00dfst\u00fcbing", "location": [15.2348212, 47.1921382]}, {"name": "Haidenhof", "municipality": "Lienz", "location": [14.286198, 48.3059078]}, {"name": "Halle Br\u00e4u", "municipality": "Glanegg", "location": [14.2109604, 46.7150055]}, {"name": "Handbrauerei Forstner", "municipality": "Kalsdorf", "location": [15.4805607086233, 46.962282]}, {"name": "Hanfland KG", "municipality": "Laa an der Thaya", "location": [16.3916766, 48.7218933]}, {"name": "Haselbr\u00e4u - Wirtshausbrauerei Haselb\u00f6ck", "municipality": "M\u00fcnichreith/Ostrong", "location": [15.1309828, 48.264524]}, {"name": "Ha\u00dfbacher Braueck", "municipality": "Ha\u00dfbach", "location": [16.0226824, 47.6517136]}, {"name": "Hausbrauerei Bogner", "municipality": "Braunau", "location": [13.039506, 48.253136]}, {"name": "Hausbrauerei Diewald", "municipality": "Gloggnitz", "location": [15.9374085, 47.6757858]}, {"name": "Hausbrauerei Hermann Eckerstorfer", "municipality": "St. Stefan am Walde", "location": [14.1025205, 48.5674914]}, {"name": "Hausbrauerei Kaltenb\u00f6ck", "municipality": "Attersee", "location": [13.5356091, 47.9143904]}, {"name": "Hausbrauerei L\u00f6scher", "municipality": "St. Nikolai im Sausal", "location": [15.4489009, 46.8210615]}, {"name": "Hausbrauerei Seidl", "municipality": "Zeutschach", "location": [14.366969, 47.0709331]}, {"name": "Hausbrauerei Turmbr\u00e4u", "municipality": "Villach - Maria Gail", "location": [13.8797358, 46.599612]}, {"name": "Haydnbr\u00e4u", "municipality": "Eisenstadt", "location": [16.5362158649556, 47.83875775]}, {"name": "Hermax Br\u00e4u", "municipality": "Hartmannsdorf", "location": [14.4008622, 46.9668724]}, {"name": "Herzog Hofbr\u00e4u", "municipality": "Wundschuh", "location": [15.4468612966131, 46.9297781]}, {"name": "Heurigenrestaurant Zur Brauerei - Fam Zusag", "municipality": "Lichtenw\u00f6rth", "location": [16.3159892987547, 47.8165568]}, {"name": "Hofbr\u00e4u Kaltenhausen (Brau Union)", "municipality": "Hallein", "location": [13.0956313, 47.6821521]}, {"name": "Hofbrauerei Preuner", "municipality": "Frankenburg", "location": [13.0331023, 50.9110365]}, {"name": "Holzb(r)auer Handwerksbrauerei", "municipality": "Warth", "location": [10.1833481, 47.2581667]}, {"name": "Hopfenspinnerei", "municipality": "Walpersdorf", "location": [15.1550355, 48.3680709]}, {"name": "hops & malt", "municipality": "Dornbirn", "location": [9.7423875, 47.413631]}, {"name": "Hubertus Br\u00e4u", "municipality": "Laa an der Thaya", "location": [16.3916766, 48.7218933]}, {"name": "Isi-Br\u00e4u", "municipality": "Bergheim", "location": [13.0221612, 47.8408541]}, {"name": "KALEA", "municipality": "Salzburg", "location": [13.0464806, 47.7981346]}, {"name": "Kandlbauer\u00b4s Hausbr\u00e4u", "municipality": "Birkfeld", "location": [15.6950405, 47.3560657]}, {"name": "Kanonenbr\u00e4u", "municipality": "Sch\u00e4rding", "location": [13.4318, 48.4569975]}, {"name": "Kartausen Br\u00e4u Privatbrauerei Gaming", "municipality": "Gaming", "location": [15.147650691852, 47.85521915]}, {"name": "Kastner Bier", "municipality": "Kasten", "location": [11.4369459270922, 58.1973606]}, {"name": "Kemmet Br\u00e4u", "municipality": "Windischgarsten", "location": [14.3289935, 47.7218417]}, {"name": "Kiesbye's BIERkulturHAUS", "municipality": "Obertrum", "location": [13.0752378, 47.9380101]}, {"name": "Kitz Br\u00e4u OG", "municipality": "Kitzb\u00fchel", "location": [12.3911473, 47.4463585]}, {"name": "Kobersdorfer Schlossbr\u00e4u", "municipality": "Kobersdorf", "location": [16.3926882, 47.5967488]}, {"name": "Kofler Br\u00e4u", "municipality": "Rottenmann", "location": [14.3585643, 47.524226]}, {"name": "Kohlschnait", "municipality": "Bruck an der Glocknerstra\u00dfe", "location": [12.8250515, 47.280483]}, {"name": "KOR", "municipality": "Langenzersdorf", "location": [16.3572556, 48.3096359]}, {"name": "Kristallbrauerei \"Mein Bier\"", "municipality": "Alpbach", "location": [11.9434513, 47.398816]}, {"name": "Kulturbrauerei Hengist", "municipality": "Hengsberg", "location": [15.4500606, 46.8691412]}, {"name": "Kurv'n Br\u00e4u Nestler", "municipality": "Enzersdorf bei Staatz", "location": [16.4991303, 48.6759989]}, {"name": "Lakeseidl", "municipality": "Neusiedl am See", "location": [16.8291276392321, 47.917685]}, {"name": "Landgasthaus Allerberger", "municipality": "Siezenheim", "location": [12.9854864, 47.8105684]}, {"name": "Landgasthaus Weixen", "municipality": "Rauris", "location": [12.9949295, 47.2290446]}, {"name": "Landwerkstatt & Genusslabor", "municipality": "Weinburg", "location": [15.5251099757748, 48.1145428]}, {"name": "Laurenzi-Br\u00e4u", "municipality": "Gleisdorf", "location": [15.710006557613, 47.106751]}, {"name": "Lava Br\u00e4u - Technikum Extrakt Getr\u00e4nke GmbH", "municipality": "Feldbach", "location": [12.2886238, 47.6351876]}, {"name": "Laxenburger Brauhandwerk", "municipality": "Laxenburg", "location": [16.3561206, 48.0686831]}, {"name": "Lederer Brauhaus Rattenberg / F\u00fcrst Br\u00e4u", "municipality": "Rattenberg", "location": [11.8941106, 47.4398841]}, {"name": "Leimer Br\u00e4u", "municipality": "Lenzing", "location": [13.6049039, 47.9733296]}, {"name": "Leitha Br\u00e4u", "municipality": "Leithaprodersdorf", "location": [16.4954946214191, 47.9197393]}, {"name": "Leonfeldner Bier", "municipality": "Bad Leonfelden", "location": [14.2930689, 48.5226514]}, {"name": "Leopoldauer Alm", "municipality": "Vienna", "location": [16.3725042, 48.2083537]}, {"name": "Linko Br\u00e4u", "municipality": "Traisen", "location": [15.6575291, 48.2278208]}, {"name": "Lost Valley", "municipality": "Umhausen", "location": [10.9298872, 47.1379396]}, {"name": "Mairwirt", "municipality": "Schwendt", "location": [12.3914614, 47.6319693]}, {"name": "Malle Biermanufaktur", "municipality": "Villach", "location": [13.8500268, 46.6167284]}, {"name": "Malt 'n More Trading - M\u00e4lzerei Plohberger", "municipality": "Grieskirchen", "location": [13.826192, 48.235011]}, {"name": "ManBeerPig", "municipality": "Innsbruck", "location": [11.3971372042211, 47.26951525]}, {"name": "Marchfelder Storchenbr\u00e4u", "municipality": "Untersiebenbrunn", "location": [16.7487215, 48.2552648]}, {"name": "Martschin & Partner", "municipality": "Vienna", "location": [16.3725042, 48.2083537]}, {"name": "Me and Uwe Brewing Company", "municipality": "Vienna", "location": [16.3725042, 48.2083537]}, {"name": "Medl-Br\u00e4u", "municipality": "Wien", "location": [16.3725042, 48.2083537]}, {"name": "Mei Durscht", "municipality": "Kottingbrunn", "location": [16.2286025, 47.9513322]}, {"name": "Michaeli-Br\u00e4u", "municipality": "Leonding", "location": [14.2487457, 48.2793314]}, {"name": "Moarbr\u00e4u", "municipality": "Stubenberg am See", "location": [15.8018857, 47.2442619]}, {"name": "Mohren Br\u00e4u", "municipality": "Dornbirn", "location": [9.7423875, 47.413631]}, {"name": "M\u00fchlenbr\u00e4u Oschenitzen", "municipality": "V\u00f6lkermarkt", "location": [14.6340505, 46.6604246]}, {"name": "M\u00fchltaler Brauerei OG", "municipality": "Mauterndorf", "location": [13.6797275, 47.1338713]}, {"name": "Muttermilch Vienna Brewery (Heineken)", "municipality": "Vienna", "location": [16.3725042, 48.2083537]}, {"name": "Nassauer City Bier", "municipality": "Unterbergla", "location": [15.314356, 46.8069767]}, {"name": "Neufeldner BioBrauerei", "municipality": "Neufelden", "location": [13.9997079, 48.4842345]}, {"name": "Next Level Brewing", "municipality": "Vienna", "location": [16.3725042, 48.2083537]}, {"name": "Nibelungengold Brauerei und Destillerie F\u00fcrstenfeld", "municipality": "F\u00fcrstenfeld", "location": [16.0816815, 47.0499925]}, {"name": "Nixe Brau GmbH", "municipality": "Vienna", "location": [16.3725042, 48.2083537]}, {"name": "Nocksteiner Bier", "municipality": "Koppl", "location": [13.1554315, 47.8078354]}, {"name": "Nussdorfer Kuchlbr\u00e4u - Lex Cervisie OG", "municipality": "Wien", "location": [16.3725042, 48.2083537]}, {"name": "One Eyed Jock Brewing", "municipality": "Graz", "location": [15.4385716, 47.0702563]}, {"name": "\u00d6sterreichischer Agrarverlag", "municipality": "Wien", "location": [16.3725042, 48.2083537]}, {"name": "Ottakringer", "municipality": "Wien", "location": [16.3725042, 48.2083537]}, {"name": "P3 Perchtoldsdorfer Privatbr\u00e4u Prochaska GmbH", "municipality": "Perchtoldsdorf", "location": [16.2559683801349, 48.1169363]}, {"name": "Pannonia Brauerei", "municipality": "Gols", "location": [16.9083706, 47.8983503]}, {"name": "Pappel Br\u00e4u", "municipality": "Mattersburg", "location": [16.3980488, 47.7368423]}, {"name": "Peterwirtsbr\u00e4u", "municipality": "Bad Mitterndorf", "location": [13.9323276, 47.5553729]}, {"name": "Petri Br\u00e4u, Hausbrauerei Sigl", "municipality": "St. Veit an der G\u00f6lsen", "location": [15.6703728, 48.0438943]}, {"name": "Pfeiffi\u00b4s Br\u00e4u", "municipality": "Ampflwang", "location": [13.5661129, 48.0924656]}, {"name": "Pfesch OG", "municipality": "Treubach", "location": [13.2119532, 48.1947461]}, {"name": "Pinzgau Br\u00e4u", "municipality": "Bruck an der Gro\u00dfglocknerstra\u00dfe", "location": [12.823909, 47.2839827]}, {"name": "Pizzeria Stamperl Katschberg", "municipality": "Rennweg am Katschberg", "location": [13.6134966, 47.0171559]}, {"name": "Poidl Br\u00e4u", "municipality": "Pottenstein", "location": [16.0596118274459, 47.95322815]}, {"name": "Privatbrauerei Erzbergbr\u00e4u", "municipality": "Eisenerz, Steiermark", "location": [14.8857099, 47.5420788]}, {"name": "Privatbrauerei Fritz Egger", "municipality": "Unterradlberg", "location": [15.6795466, 48.2553232]}, {"name": "Privatbrauerei Gerald Schwarz", "municipality": "Krumbach", "location": [16.0197106, 47.4164383]}, {"name": "Privatbrauerei Loncium", "municipality": "K\u00f6tschach-Mauthen", "location": [12.9711698643843, 46.6616767]}, {"name": "Privatbrauerei Schnaitl GmbH & Co", "municipality": "Eggelsberg", "location": [12.9910444, 48.0765942]}, {"name": "Privatbrauerei Schneebergbr\u00e4u", "municipality": "W\u00fcrflach", "location": [16.0394425501565, 47.7710398]}, {"name": "Privatbrauerei Sch\u00f6nbach Maria Pichler", "municipality": "Sch\u00f6nbach", "location": [15.975017, 48.211534]}, {"name": "Privatbrauerei Specht (A)", "municipality": "Ollern", "location": [16.0830741, 48.2673924]}, {"name": "Privatbrauerei Vitzthum", "municipality": "Uttendorf", "location": [12.5711475, 47.2851464]}, {"name": "Privatbrauerei Zwettl Karl Schwarz", "municipality": "Zwettl", "location": [15.0680936351091, 48.5535109]}, {"name": "Puntigamer (Brau Union)", "municipality": "Graz", "location": [15.4385716, 47.0702563]}, {"name": "Putz'n Br\u00e4u", "municipality": "Pinggau", "location": [16.06516, 47.4450088]}, {"name": "Rabenbr\u00e4u - Braugasthof Schmidt", "municipality": "Neustift/Lafnitz", "location": [16.0133264, 47.3696114]}, {"name": "Raggei-Br\u00e4u", "municipality": "Anthering bei Salzburg", "location": [13.012279, 47.8801316]}, {"name": "Rax Br\u00e4u", "municipality": "Payerbach", "location": [15.8709994109085, 47.6891437]}, {"name": "RBB Rolbrettbr\u00e4u", "municipality": "Bad Vigaun", "location": [13.1333527, 47.6665713]}, {"name": "Rebellion Craft Beer Productions GmbH", "municipality": "Vienna", "location": [16.3725042, 48.2083537]}, {"name": "Richards Bieratelier", "municipality": "Leitring", "location": [15.5672576, 46.7773491]}, {"name": "Ritonka", "municipality": "Gerasdorf", "location": [16.4712522564555, 48.29412025]}, {"name": "Ritterbr\u00e4u Privatbrauerei Neumarkt", "municipality": "Neumarkt", "location": [13.2190664, 47.9446636]}, {"name": "Rodauner Biermanufaktur", "municipality": "Vienna", "location": [16.3725042, 48.2083537]}, {"name": "Roter Hiasl", "municipality": "Vienna", "location": [16.3725042, 48.2083537]}, {"name": "Rudolf Erlebnisbrauerei", "municipality": "Graz", "location": [15.4385716, 47.0702563]}, {"name": "Sajacher Schl\u00f6\u00dfl Br\u00e4u", "municipality": "Gabersdorf", "location": [15.5881617, 46.7813377]}, {"name": "Salm-Br\u00e4u", "municipality": "Wien", "location": [16.3725042, 48.2083537]}, {"name": "Schaubrauerei Dorf-Alm", "municipality": "Holzgau", "location": [10.3445814, 47.2600843]}, {"name": "Schladminger Brau (Brau Union)", "municipality": "Schladming", "location": [13.6867878, 47.3940415]}, {"name": "Schleppe Brauerei (Villacher)", "municipality": "Klagenfurt", "location": [14.3079604, 46.6228162]}, {"name": "Schlossbrau Weinberg", "municipality": "Kefermarkt", "location": [14.5383884, 48.4429634]}, {"name": "Schmaranz Br\u00e4u", "municipality": "Bad Hofgastein", "location": [13.1060635, 47.1703104]}, {"name": "Schwannl Br\u00e4u", "municipality": "K\u00f6flach", "location": [15.0850032, 47.0644882]}, {"name": "Schwarzer Rabe", "municipality": "Wien", "location": [16.3725042, 48.2083537]}, {"name": "Schwechater (Brau Union)", "municipality": "Schwechat", "location": [16.4780312, 48.1397436]}, {"name": "Schwertberger Br\u00e4u", "municipality": "Schwertberg", "location": [14.5817826, 48.2741408]}, {"name": "Sektkellerei Gebr\u00fcder Szigeti", "municipality": "Gols", "location": [16.9083706, 47.8983503]}, {"name": "s'H\u00f6f Brauhaus", "municipality": "Tannheim", "location": [10.5160985, 47.4994166]}, {"name": "Siegersdorfer Brauwerkstatt Fritsche", "municipality": "Siegersdorf", "location": [16.3532042, 47.9025176]}, {"name": "s'Kloane Brauhaus", "municipality": "Salzburg", "location": [13.0464806, 47.7981346]}, {"name": "Spa\u00dfbrauer", "municipality": "Maria Enzersdorf", "location": [16.2837722, 48.0974516]}, {"name": "St. P\u00f6ltner Braugenossenschaft", "municipality": "St. P\u00f6lten", "location": [15.6229118, 48.2043985]}, {"name": "Stadl-Br\u00e4u", "municipality": "Berwang", "location": [10.747685, 47.4091141]}, {"name": "Stadtbr\u00e4u Josef", "municipality": "Linz", "location": [14.286198, 48.3059078]}, {"name": "Steirisch Ursprung", "municipality": "Gleisdorf", "location": [15.710006557613, 47.106751]}, {"name": "Sternbr\u00e4u Rankweil", "municipality": "Rankweil", "location": [9.6426923, 47.2703808]}, {"name": "Steyrer Hofbr\u00e4u", "municipality": "Gleink/Steyr", "location": [14.4155839, 48.0687171]}, {"name": "Stiegl-Ambulanz", "municipality": "Wien", "location": [16.3725042, 48.2083537]}, {"name": "Stieglbrauerei zu Salzburg", "municipality": "Salzburg", "location": [13.0464806, 47.7981346]}, {"name": "Stiegl-Gut Wildshut", "municipality": "St. Pantaleon", "location": [12.8951284, 48.0072557]}, {"name": "Stift Engelszell Trappistenbier-Brauerei", "municipality": "Engelhartszell an der Donau", "location": [13.6933081117053, 48.4968314]}, {"name": "Stiftsbrauerei Schl\u00e4gl", "municipality": "Aigen-Schl\u00e4gl", "location": [13.9716495, 48.6440861]}, {"name": "Sudhaus Anton Paar", "municipality": "Graz", "location": [15.4385716, 47.0702563]}, {"name": "Syndicate Brewers", "municipality": "Naarn", "location": [14.6766651, 48.2132626]}, {"name": "The Beer Buddies GmbH", "municipality": "Tragwein", "location": [14.621236, 48.3320408]}, {"name": "The Highlander", "municipality": "Wien", "location": [16.3725042, 48.2083537]}, {"name": "Theresienbr\u00e4u", "municipality": "Innsbruck", "location": [11.3971372042211, 47.26951525]}, {"name": "Thor-Br\u00e4u Ottensheim", "municipality": "Ottensheim", "location": [14.1757273, 48.3318812]}, {"name": "Thrasher brewery", "municipality": "Vienna", "location": [16.3725042, 48.2083537]}, {"name": "Tiroler Bier - Brauerei Harald Baumgartner", "municipality": "Innsbruck", "location": [11.3971372042211, 47.26951525]}, {"name": "Tom & Harry Brewing", "municipality": "Kapfenberg", "location": [15.2901669, 47.4405481]}, {"name": "Toni-Br\u00e4u", "municipality": "Ebersdorf", "location": [15.8625827, 48.2842061]}, {"name": "Treibhaus Privatbrauerei GesbR", "municipality": "Vienna", "location": [16.3725042, 48.2083537]}, {"name": "Tribaun", "municipality": "Innsbruck", "location": [11.3971372042211, 47.26951525]}, {"name": "Trumer Privatbrauerei Josef Sigl", "municipality": "Salzburg-Obertrum", "location": [13.0752378, 47.9380101]}, {"name": "Tsch\u00f6ams", "municipality": "M\u00f6dling", "location": [16.2833526, 48.0855922]}, {"name": "Tuxertal Brauerei", "municipality": "Tux", "location": [11.7360615, 47.1608599]}, {"name": "Universit\u00e4tsbr\u00e4uhaus", "municipality": "Wien", "location": [16.3725042, 48.2083537]}, {"name": "Vereinigte K\u00e4rntner Brauereien", "municipality": "Villach", "location": [13.8500268, 46.6167284]}, {"name": "Vilser Privatbrauerei GmbH", "municipality": "Vils", "location": [14.0244047, 48.1566957]}, {"name": "Waldgasthaus Triendls\u00e4ge", "municipality": "Seefeld in Tirol", "location": [11.1867187, 47.3289241]}, {"name": "Walhalla Genusskulisse", "municipality": "Fehring", "location": [16.01045, 46.9359649]}, {"name": "Wasted Bio Bier", "municipality": "Vienna", "location": [16.3725042, 48.2083537]}, {"name": "Weingut Judith Beck", "municipality": "Gols", "location": [16.9083706, 47.8983503]}, {"name": "Wenzl Privatbr\u00e4u", "municipality": "Wernstein am Inn", "location": [13.4836910488038, 48.5049827]}, {"name": "Westbahn Br\u00e4u", "municipality": "Oberhofen am Irrsee", "location": [13.3059824, 47.9522477]}, {"name": "Wie Neu Br\u00e4u", "municipality": "Wiener Neudorf", "location": [16.3184487235461, 48.0885947]}, {"name": "Wieden Br\u00e4u", "municipality": "Wien", "location": [16.3725042, 48.2083537]}, {"name": "Wieselburger Brauerei (Brau Union)", "municipality": "Wieselburg", "location": [15.1465033530127, 48.1293179]}, {"name": "Wimitzbr\u00e4u", "municipality": "Kraig", "location": [14.3675071, 46.81153]}, {"name": "Winzer Br\u00e4u Hofbauer", "municipality": "Unterretzbach", "location": [16.0024953, 48.7660054]}, {"name": "Wirt z' Ernsting", "municipality": "Ostermiething", "location": [12.8303402, 48.0459363]}, {"name": "Woif Biersieder", "municipality": "Seekirchen", "location": [13.1260778, 47.8942481]}, {"name": "Wolfsbr\u00e4u KG Privatbrauerei Familie Wagner", "municipality": "Thernberg", "location": [16.1771203, 47.6615042]}, {"name": "Wurmh\u00f6ringer Brauerei", "municipality": "Altheim", "location": [13.2320404, 48.250022]}, {"name": "Xandlbr\u00e4u", "municipality": "Vitis", "location": [15.1820524, 48.7588684]}, {"name": "Xaver Brauerei", "municipality": "Vienna", "location": [16.3725042, 48.2083537]}, {"name": "Ybbstalbr\u00e4u - Gasthaus Hehenberger", "municipality": "Waidhofen an der Ybbs", "location": [14.7445258559413, 47.95126495]}, {"name": "Zebed\u00e4us Br\u00e4u", "municipality": "Zellerndorf", "location": [15.9589781, 48.6946184]}, {"name": "Zecherbr\u00e4u", "municipality": "Enzenreith", "location": [15.952258, 47.6693834]}, {"name": "Zeux", "municipality": "Wien", "location": [16.3725042, 48.2083537]}, {"name": "Zillertal", "municipality": "Zell am Ziller", "location": [11.8835869, 47.2333511]}, {"name": "Zipfer (Brau Union)", "municipality": "Zipf", "location": [16.187352, 46.9696849]}, {"name": "Zum Alfons Baldinger", "municipality": "Rutzenham bei Schwanenstadt", "location": [13.7654714, 48.0562681]}]